City_ID,City,Lat,Lng,Max Temp,Humidity,Cloudiness,Wind Speed,Country,Date
0,college,64.8569,-147.8028,-41.879999999999995,31,20,2.06,US,2024-02-01
1,adamstown,-25.066,-130.1015,25.029999999999973,87,10,9.99,PN,2024-02-01
2,avarua,-21.2078,-159.775,28.180000000000007,78,97,3.09,CK,2024-02-01
3,grytviken,-54.2811,-36.5092,5.970000000000027,69,42,4.56,GS,2024-02-01
4,qaqortoq,60.7167,-46.0333,-12.70999999999998,90,72,1.87,GL,2024-02-01
5,tura,25.5198,90.2201,14.649999999999977,67,0,1.43,IN,2024-02-01
6,hell-ville,-13.4,48.2667,28.410000000000025,78,39,5.28,MG,2024-02-01
7,whitehorse,60.7161,-135.0538,-14.420000000000016,55,100,5.14,CA,2024-02-01
8,bilibino,68.0546,166.4372,-43.75999999999999,98,7,1.73,RU,2024-02-01
9,san luis de la loma,17.2706,-100.8939,27.230000000000018,72,100,1.18,MX,2024-02-01
10,blackmans bay,-43.0167,147.3167,14.220000000000027,58,54,1.79,AU,2024-02-01
11,muromtsevo,56.3724,75.2418,-18.75999999999999,99,72,2.01,RU,2024-02-01
12,hamilton,39.1834,-84.5333,12.420000000000016,63,0,5.66,US,2024-02-01
13,isafjordur,66.0755,-23.124,3.170000000000016,70,100,1.54,IS,2024-02-01
14,papatowai,-46.5619,169.4708,11.850000000000023,93,100,1.77,NZ,2024-02-01
15,kiunga,-6.1219,141.2906,23.649999999999977,100,100,0.46,PG,2024-02-01
16,bumba,2.1833,22.4667,27.089999999999975,49,16,1.14,CD,2024-02-01
17,mejit,10.2753,170.8646,26.660000000000025,87,58,10.42,MH,2024-02-01
18,atafu village,-8.5421,-172.5159,26.529999999999973,89,100,6.65,TK,2024-02-01
19,beau vallon,-20.4189,57.6953,27.279999999999973,78,75,7.72,MU,2024-02-01
20,vallegrande,-18.4897,-64.1069,20.029999999999973,63,99,0.71,BO,2024-02-01
21,iqaluit,63.7506,-68.5145,-31.0,62,100,3.09,CA,2024-02-01
22,gudari,19.35,83.7833,20.019999999999982,72,4,1.12,IN,2024-02-01
23,jamestown,42.097,-79.2353,4.920000000000016,94,100,5.66,US,2024-02-01
24,battagram,34.6772,73.0233,2.6899999999999977,64,5,2.55,PK,2024-02-01
25,thompson,55.7435,-97.8558,-11.759999999999991,79,75,2.57,CA,2024-02-01
26,hawaiian paradise park,19.5933,-154.9731,25.170000000000016,76,0,2.57,US,2024-02-01
27,camiri,-20.05,-63.5167,33.02999999999997,46,75,0.0,BO,2024-02-01
28,cole harbour,44.6724,-63.4751,2.3500000000000227,78,100,2.57,CA,2024-02-01
29,ola,59.5833,151.2833,-28.78,89,25,3.8,RU,2024-02-01
30,new norfolk,-42.7826,147.0587,14.870000000000005,60,32,6.21,AU,2024-02-01
31,mount pearl,47.5166,-52.7813,-0.7799999999999727,78,75,7.2,CA,2024-02-01
32,nguigmi,14.2495,13.1092,21.19999999999999,21,0,6.14,NE,2024-02-01
33,broceni,56.7,22.5333,1.3700000000000045,74,92,5.76,LV,2024-02-01
34,oyama,36.3,139.8,7.139999999999986,37,99,2.94,JP,2024-02-01
35,port-aux-francais,-49.35,70.2167,6.699999999999989,84,98,3.33,TF,2024-02-01
36,benghazi,32.1167,20.0667,14.600000000000023,57,80,6.73,LY,2024-02-01
37,moramanga,-18.9333,48.2,18.889999999999986,98,100,1.97,MG,2024-02-01
38,touros,-5.1989,-35.4608,29.439999999999998,61,6,6.0,BR,2024-02-01
39,edinburgh of the seven seas,-37.0676,-12.3116,18.55000000000001,88,93,7.37,SH,2024-02-01
40,mossel bay,-34.1831,22.146,23.110000000000014,85,100,1.22,ZA,2024-02-01
41,petropavlovsk-kamchatsky,53.0452,158.6483,-14.519999999999982,86,100,4.0,RU,2024-02-01
42,tabuk,17.4189,121.4443,19.99000000000001,92,19,1.52,PH,2024-02-01
43,hotan,37.0997,79.9269,-3.2900000000000205,87,100,3.01,CN,2024-02-01
44,stanley,54.868,-1.6985,6.0,81,20,5.14,GB,2024-02-01
45,hegang,47.4,130.3667,-24.44999999999999,92,5,2.6,CN,2024-02-01
46,airway heights,47.6446,-117.5933,6.0400000000000205,91,100,5.14,US,2024-02-01
47,prado,-17.3411,-39.2208,27.560000000000002,67,22,4.65,BR,2024-02-01
48,waitangi,-43.9535,-176.5597,15.610000000000014,98,100,1.79,NZ,2024-02-01
49,andergrove,-21.0833,149.1833,26.600000000000023,81,98,6.15,AU,2024-02-01
50,besisahar,28.2313,84.3761,11.100000000000023,48,71,3.33,NP,2024-02-01
51,punta arenas,-53.15,-70.9167,17.20999999999998,34,20,20.58,CL,2024-02-01
52,kingston,17.997,-76.7936,29.680000000000007,59,20,2.57,JM,2024-02-01
53,invercargill,-46.4,168.35,10.720000000000027,95,100,0.45,NZ,2024-02-01
54,port mathurin,-19.6833,63.4167,26.19999999999999,94,75,13.89,MU,2024-02-01
55,hola,51.5377,23.1902,2.25,81,23,7.66,PL,2024-02-01
56,tashtyp,52.7939,89.8983,-16.160000000000025,97,100,0.59,RU,2024-02-01
57,afaahiti,-17.75,-149.2833,29.079999999999984,76,84,7.61,PF,2024-02-01
58,tucupita,9.0622,-62.051,31.939999999999998,50,100,4.29,VE,2024-02-01
59,shiguai,40.7058,110.2856,-11.689999999999998,83,33,1.96,CN,2024-02-01
60,nizhneangarsk,55.7833,109.55,-25.960000000000008,85,13,2.24,RU,2024-02-01
61,san antonio de pale,-1.4014,5.6325,28.29000000000002,77,92,2.76,GQ,2024-02-01
62,puerto ayora,-0.7393,-90.3518,30.129999999999995,70,100,3.4,EC,2024-02-01
63,inhambane,-23.865,35.3833,26.139999999999986,89,20,4.63,MZ,2024-02-01
64,yellowknife,62.456,-114.3525,-11.29000000000002,100,100,8.23,CA,2024-02-01
65,nagqu,31.5,92.0,-9.04000000000002,81,100,6.28,CN,2024-02-01
66,talnakh,69.4865,88.3972,-16.399999999999977,85,100,7.53,RU,2024-02-01
67,axim,4.8699,-2.2405,27.100000000000023,85,11,3.17,GH,2024-02-01
68,harstad,68.799,16.5293,-3.1899999999999977,89,100,24.14,NO,2024-02-01
69,puerto baquerizo moreno,-0.9,-89.6,27.69999999999999,83,75,3.09,EC,2024-02-01
70,gebeit,21.0667,36.3167,13.189999999999998,24,0,6.76,SD,2024-02-01
71,fale old settlement,-9.3852,-171.2468,27.939999999999998,82,99,7.83,TK,2024-02-01
72,ilulissat,69.2167,-51.1,-18.840000000000003,78,75,8.23,GL,2024-02-01
73,fuerte olimpo,-21.0415,-57.8738,40.80000000000001,19,100,1.19,PY,2024-02-01
74,lompoc,34.6391,-120.4579,16.69999999999999,68,100,3.09,US,2024-02-01
75,polyarnyy,69.1989,33.4478,-0.38999999999998636,86,100,9.63,RU,2024-02-01
76,east london,-33.0153,27.9116,24.670000000000016,88,40,4.63,ZA,2024-02-01
77,hermanus,-34.4187,19.2345,24.480000000000018,80,5,6.69,ZA,2024-02-01
78,port alfred,-33.5906,26.891,22.470000000000027,95,70,2.24,ZA,2024-02-01
79,west island,-12.1568,96.8225,28.139999999999986,83,75,3.6,CC,2024-02-01
80,argostolion,38.1811,20.489,9.189999999999998,55,20,2.06,GR,2024-02-01
81,humaita,-7.5061,-63.0208,24.360000000000014,98,100,1.05,BR,2024-02-01
82,krasnovishersk,60.4078,57.082,-4.579999999999984,95,100,2.88,RU,2024-02-01
83,astrakhan,46.3497,48.0408,-2.920000000000016,92,100,4.92,RU,2024-02-01
84,yarovoye,52.9273,78.58,-10.139999999999986,93,100,3.28,RU,2024-02-01
85,tazacorte,28.629,-17.9293,23.689999999999998,52,0,5.66,ES,2024-02-01
86,revda,56.801,59.9303,-15.879999999999995,99,100,1.68,RU,2024-02-01
87,ghardaia,32.4909,3.6735,14.79000000000002,29,0,0.0,DZ,2024-02-01
88,saipan,15.1355,145.701,24.54000000000002,94,100,6.17,MP,2024-02-01
89,nemuro,43.3236,145.575,-8.279999999999973,63,52,8.47,JP,2024-02-01
90,scottburgh,-30.2867,30.7532,23.69999999999999,88,93,5.79,ZA,2024-02-01
91,puerto natales,-51.7236,-72.4875,16.399999999999977,44,40,12.86,CL,2024-02-01
92,kabalo,-6.05,26.9167,22.00999999999999,95,100,1.43,CD,2024-02-01
93,aswan,24.0934,32.907,14.759999999999991,33,0,3.6,EG,2024-02-01
94,albany,42.6001,-73.9662,4.529999999999973,87,100,0.89,US,2024-02-01
95,trinidad,-14.8333,-64.9,34.139999999999986,59,40,2.06,BO,2024-02-01
96,enewetak,11.3474,162.3373,26.30000000000001,83,100,12.53,MH,2024-02-01
97,salamanca,40.8333,-6.0,10.699999999999989,75,79,2.83,ES,2024-02-01
98,pirane,-25.7324,-59.1088,40.360000000000014,18,0,3.08,AR,2024-02-01
99,ngaoundere,7.3167,13.5833,21.889999999999986,21,7,3.1,CM,2024-02-01
100,klyuchi,52.2667,79.1667,-7.430000000000007,91,100,4.27,RU,2024-02-01
101,olonkinbyen,70.9221,-8.7187,-6.769999999999982,62,28,6.31,SJ,2024-02-01
102,leh,34.1667,77.5833,-9.550000000000011,85,99,2.32,IN,2024-02-01
103,bethel,41.3712,-73.414,5.990000000000009,74,100,3.6,US,2024-02-01
104,guadalupe,25.6833,-100.25,22.569999999999993,51,0,7.15,MX,2024-02-01
105,holualoa,19.6228,-155.9522,24.470000000000027,66,75,2.57,US,2024-02-01
106,chibougamau,49.9168,-74.3659,-3.0600000000000023,93,100,4.12,CA,2024-02-01
107,tiksi,71.6872,128.8694,-17.840000000000003,92,100,2.69,RU,2024-02-01
108,dongola,19.1667,30.4833,13.019999999999982,24,0,5.18,SD,2024-02-01
109,spring creek,40.7266,-115.5859,9.430000000000007,56,100,5.81,US,2024-02-01
110,andrews farm,-34.6775,138.6637,17.69999999999999,88,2,3.13,AU,2024-02-01
111,p'ot'i,42.1462,41.672,5.189999999999998,75,23,1.12,GE,2024-02-01
112,yelets,52.6237,38.5017,-0.5400000000000205,91,100,6.29,RU,2024-02-01
113,siwa oasis,29.2041,25.5195,11.860000000000014,48,20,2.88,EG,2024-02-01
114,valparaiso,-33.0393,-71.6273,24.279999999999973,66,0,6.69,CL,2024-02-01
115,ribeira grande,38.5167,-28.7,17.80000000000001,88,20,3.6,PT,2024-02-01
116,kavieng,-2.5744,150.7967,27.720000000000027,80,100,2.34,PG,2024-02-01
117,medicine hat,50.0501,-110.6683,14.160000000000025,42,0,4.12,CA,2024-02-01
118,kollo,13.3043,2.339,29.389999999999986,18,14,4.26,NE,2024-02-01
119,vorgashor,67.5833,63.95,-5.800000000000011,80,100,6.64,RU,2024-02-01
120,lydenburg,-25.0978,30.4597,14.730000000000018,83,0,2.45,ZA,2024-02-01
121,margaret river,-33.95,115.0667,17.899999999999977,87,3,3.24,AU,2024-02-01
122,bushehr,28.9684,50.8385,20.19999999999999,73,40,5.14,IR,2024-02-01
123,keflavik,64.0049,-22.5624,3.1000000000000227,100,75,3.6,IS,2024-02-01
124,parintins,-2.6283,-56.7358,31.29000000000002,66,100,1.66,BR,2024-02-01
125,taoudenni,22.6783,-3.9836,22.910000000000025,15,100,5.5,ML,2024-02-01
126,isangel,-19.55,169.2667,24.20999999999998,88,100,3.6,VU,2024-02-01
127,dryden,49.7833,-92.7503,-4.689999999999998,80,100,3.09,CA,2024-02-01
128,sheridan,44.8333,-106.9173,12.069999999999993,53,0,0.0,US,2024-02-01
129,labuan,5.2767,115.2417,27.350000000000023,88,40,2.68,MY,2024-02-01
130,tsiombe,-25.3,45.4833,23.670000000000016,76,87,7.5,MG,2024-02-01
131,arlington,32.7357,-97.1081,23.029999999999973,34,0,5.66,US,2024-02-01
132,black point,-34.6187,137.8972,17.480000000000018,83,3,4.92,AU,2024-02-01
133,codrington,-38.2667,141.9667,13.75,77,7,4.31,AU,2024-02-01
134,weno,7.4515,151.8468,26.120000000000005,94,75,3.6,FM,2024-02-01
135,dolinsk,47.35,142.8,-16.670000000000016,96,100,0.28,RU,2024-02-01
136,tolanaro,-25.0319,46.9987,25.189999999999998,78,75,8.23,MG,2024-02-01
137,ancud,-41.8697,-73.8203,18.74000000000001,80,100,3.45,CL,2024-02-01
138,happy valley-goose bay,53.3168,-60.3315,-15.680000000000007,39,20,5.14,CA,2024-02-01
139,bredasdorp,-34.5322,20.0403,21.939999999999998,91,98,3.5,ZA,2024-02-01
140,riberalta,-10.9833,-66.1,30.25999999999999,70,75,2.57,BO,2024-02-01
141,hammerfest,70.6634,23.6821,-1.6000000000000227,93,100,12.86,NO,2024-02-01
142,khovd,48.0056,91.6419,-21.03,95,97,0.53,MN,2024-02-01
143,san pedro pochutla,15.7333,-96.4667,28.99000000000001,43,94,2.89,MX,2024-02-01
144,turbat,26.0023,63.044,22.0,40,21,0.42,PK,2024-02-01
145,darwin,-12.4611,130.8418,28.139999999999986,89,75,5.14,AU,2024-02-01
146,cedeira,43.6797,-8.0209,13.939999999999998,73,37,6.36,ES,2024-02-01
147,palu,-0.8917,119.8707,24.50999999999999,95,92,0.92,ID,2024-02-01
148,muragacha,23.5333,88.4,19.029999999999973,83,42,0.98,IN,2024-02-01
149,saynshand,44.8824,110.1163,-21.639999999999986,83,28,1.1,MN,2024-02-01
150,post,33.1909,-101.3782,20.689999999999998,34,83,7.0,US,2024-02-01
151,praia da vitoria,38.7333,-27.0667,18.899999999999977,88,75,3.91,PT,2024-02-01
152,arawa,-6.2132,155.5367,25.560000000000002,88,26,0.99,PG,2024-02-01
153,nuuk,64.1835,-51.7216,-13.509999999999991,78,75,3.6,GL,2024-02-01
154,al kharijah,25.4514,30.5464,10.350000000000023,49,0,2.9,EG,2024-02-01
155,aljezur,37.3191,-8.8033,13.689999999999998,78,4,0.91,PT,2024-02-01
156,qaryat suluq,31.6682,20.2521,13.139999999999986,51,100,3.35,LY,2024-02-01
157,glazov,58.1394,52.6584,-5.430000000000007,90,100,4.2,RU,2024-02-01
158,castro,-24.7911,-50.0119,20.269999999999982,80,93,2.88,BR,2024-02-01
159,sao jose da coroa grande,-8.8978,-35.1478,28.810000000000002,71,45,5.07,BR,2024-02-01
160,mersing,2.4312,103.8405,26.100000000000023,89,20,2.57,MY,2024-02-01
161,anzio,41.4853,12.6179,11.259999999999991,73,100,1.96,IT,2024-02-01
162,kingscliff,-28.2667,153.5667,21.689999999999998,100,14,0.0,AU,2024-02-01
163,georgetown,5.4112,100.3354,28.110000000000014,81,20,2.57,MY,2024-02-01
164,souillac,-20.5167,57.5167,27.360000000000014,78,75,7.72,MU,2024-02-01
165,prince rupert,54.3161,-130.3201,7.980000000000018,93,100,3.09,CA,2024-02-01
166,sao vicente,-23.9631,-46.3919,28.470000000000027,57,20,4.12,BR,2024-02-01
167,vilyuchinsk,52.9306,158.4028,-13.699999999999989,95,100,3.14,RU,2024-02-01
168,gaozhou,21.9392,110.8461,19.439999999999998,94,26,2.1,CN,2024-02-01
169,waddan,29.1614,16.139,11.009999999999991,52,5,3.03,LY,2024-02-01
170,portel,-1.9356,-50.8211,29.379999999999995,77,61,2.25,BR,2024-02-01
171,at taj,24.2049,23.2857,8.240000000000009,44,0,4.18,LY,2024-02-01
172,betul,21.9153,77.8961,17.100000000000023,50,0,0.94,IN,2024-02-01
173,el nido,11.1858,119.3956,26.100000000000023,79,11,3.91,PH,2024-02-01
174,lerwick,60.1545,-1.1494,7.149999999999977,91,100,9.87,GB,2024-02-01
175,hilo,19.7297,-155.09,26.600000000000023,73,1,1.34,US,2024-02-01
176,port isabel,26.0734,-97.2086,25.170000000000016,70,75,7.72,US,2024-02-01
177,ushuaia,-54.8,-68.3,18.95999999999998,34,40,7.72,AR,2024-02-01
178,port elizabeth,-33.918,25.5701,22.55000000000001,91,0,6.69,ZA,2024-02-01
179,brak,27.5496,14.2714,10.5,38,4,3.26,LY,2024-02-01
180,mora,11.0461,14.1401,23.79000000000002,19,100,3.31,CM,2024-02-01
181,nar'yan-mar,67.6713,53.087,-2.569999999999993,93,100,7.6,RU,2024-02-01
182,pergamos,35.0417,33.7083,9.639999999999986,81,7,2.25,GB,2024-02-01
183,aginskoye,51.1,114.53,-26.389999999999986,95,5,1.8,RU,2024-02-01
184,kenitra,34.261,-6.5802,17.569999999999993,75,0,2.89,MA,2024-02-01
185,queenstown,-31.8976,26.8753,21.089999999999975,68,63,2.48,ZA,2024-02-01
186,carbonear,47.7332,-53.2148,-0.3299999999999841,75,33,3.64,CA,2024-02-01
187,manistee,44.2445,-86.3242,7.1200000000000045,77,40,4.12,US,2024-02-01
188,sandpoint,48.2766,-116.5533,9.990000000000009,81,96,1.71,US,2024-02-01
189,badger,64.8,-147.5333,-39.900000000000006,67,20,2.06,US,2024-02-01
190,wailua homesteads,22.0669,-159.378,20.589999999999975,85,100,1.54,US,2024-02-01
191,ust-nera,64.5667,143.2,-30.669999999999987,100,100,1.47,RU,2024-02-01
192,kodiak,57.79,-152.4072,-1.1200000000000045,64,0,6.17,US,2024-02-01
193,constantia,44.1833,28.65,2.759999999999991,57,0,4.11,RO,2024-02-01
194,island harbour,50.724,-1.2758,7.189999999999998,84,87,0.89,GB,2024-02-01
195,carauari,-4.8828,-66.8958,29.519999999999982,68,100,2.1,BR,2024-02-01
196,veraval,20.9,70.3667,22.25,81,2,3.34,IN,2024-02-01
197,qamdo,31.1667,97.2333,-10.220000000000027,47,80,3.31,CN,2024-02-01
198,taco pozo,-25.6167,-63.2833,41.74000000000001,17,97,2.39,AR,2024-02-01
199,bikenibeu village,1.3673,173.1241,28.129999999999995,94,40,3.09,KI,2024-02-01
200,walvis bay,-22.9575,14.5053,22.680000000000007,73,28,0.51,NA,2024-02-01
201,namibe,-15.1961,12.1522,25.439999999999998,78,100,4.75,AO,2024-02-01
202,dunedin,-45.8742,170.5036,13.930000000000007,93,100,3.13,NZ,2024-02-01
203,mariental,-24.6333,17.9667,29.189999999999998,36,97,5.72,NA,2024-02-01
204,arno,60.1167,18.6333,1.6999999999999886,73,53,7.12,SE,2024-02-01
205,santa elena de uairen,4.6167,-61.1333,27.720000000000027,52,100,0.91,VE,2024-02-01
206,lihue,21.9789,-159.3672,20.920000000000016,85,100,1.54,US,2024-02-01
207,rio grande,-32.035,-52.0986,31.20999999999998,62,0,5.76,BR,2024-02-01
208,susuman,62.7833,148.1667,-25.97,100,100,0.45,RU,2024-02-01
209,san patricio,28.017,-97.5169,24.19999999999999,58,34,5.73,US,2024-02-01
210,ebermannstadt,49.7822,11.1811,5.529999999999973,92,67,1.65,DE,2024-02-01
211,faya-largeau,17.9257,19.1043,16.689999999999998,20,0,9.29,TD,2024-02-01
212,wynyard,-41.0,145.7167,13.589999999999975,60,97,7.22,AU,2024-02-01
213,rani,25.3503,73.3089,17.829999999999984,50,29,1.04,IN,2024-02-01
214,great falls,47.5002,-111.3008,17.600000000000023,28,0,9.26,US,2024-02-01
215,hasaki,35.7333,140.8333,4.199999999999989,61,100,10.78,JP,2024-02-01
216,xishan,27.6667,113.5,2.920000000000016,93,100,2.65,CN,2024-02-01
217,high rock,26.6208,-78.2833,21.160000000000025,55,76,5.46,BS,2024-02-01
218,opuwo,-18.0607,13.84,25.399999999999977,55,98,3.81,NA,2024-02-01
219,lebu,-37.6167,-73.65,19.439999999999998,73,3,6.45,CL,2024-02-01
220,wuwei,37.9281,102.6414,-5.189999999999998,91,100,2.63,CN,2024-02-01
221,nambucca,-30.6333,152.9833,21.160000000000025,85,0,1.47,AU,2024-02-01
222,pundong,-7.9522,110.3486,25.5,89,100,3.29,ID,2024-02-01
223,lamesa,32.7376,-101.951,19.879999999999995,33,23,7.26,US,2024-02-01
224,cabo san lucas,22.8909,-109.9124,29.379999999999995,65,0,4.12,MX,2024-02-01
225,tromso,69.6496,18.957,-2.839999999999975,86,100,8.75,NO,2024-02-01
226,carnarvon,-24.8667,113.6333,24.980000000000018,84,65,2.67,AU,2024-02-01
227,laguna,38.421,-121.4238,14.379999999999995,91,40,3.09,US,2024-02-01
228,olinda,-8.0089,-34.8553,29.0,74,75,4.63,BR,2024-02-01
229,ouesso,1.6136,16.0517,28.0,41,81,1.08,CG,2024-02-01
230,puerto santa,-8.9906,-78.6456,25.910000000000025,76,100,4.78,PE,2024-02-01
231,esuk oron,4.8029,8.2534,27.920000000000016,76,100,2.88,NG,2024-02-01
232,kapuskasing,49.4169,-82.4331,-9.800000000000011,79,100,6.17,CA,2024-02-01
233,reggane,26.7158,0.1714,18.99000000000001,18,0,3.67,DZ,2024-02-01
234,ugoofaaru,5.6667,73.0,28.139999999999986,76,100,5.13,MV,2024-02-01
235,bizanos,43.2833,-0.35,10.339999999999975,93,100,0.0,FR,2024-02-01
236,cadale,2.7603,46.3222,26.94999999999999,80,100,5.64,SO,2024-02-01
237,mount gambier,-37.8333,140.7667,13.850000000000023,89,1,2.47,AU,2024-02-01
238,coquimbo,-29.9533,-71.3436,21.0,77,75,5.14,CL,2024-02-01
239,vershino-darasunskiy,52.35,115.5167,-28.930000000000007,99,15,1.42,RU,2024-02-01
240,newnham,-41.3833,147.1333,14.680000000000007,44,3,5.66,AU,2024-02-01
241,port lincoln,-34.7333,135.8667,15.829999999999984,88,1,3.36,AU,2024-02-01
242,saint augustine beach,29.8505,-81.2654,18.519999999999982,67,0,3.09,US,2024-02-01
243,goynuk,40.4003,30.7883,-0.19999999999998863,79,3,1.17,TR,2024-02-01
244,tomatlan,19.9333,-105.25,32.79000000000002,38,29,3.38,MX,2024-02-01
245,lu-uk,5.9684,121.3122,25.370000000000005,88,100,0.65,PH,2024-02-01
246,sukuta,13.4103,-16.7082,31.160000000000025,27,100,0.0,GM,2024-02-01
247,nantucket,41.2835,-70.0995,4.639999999999986,70,100,5.66,US,2024-02-01
248,greenville,35.6127,-77.3663,13.240000000000009,54,0,2.06,US,2024-02-01
249,tual,-5.6667,132.75,28.680000000000007,79,100,7.91,ID,2024-02-01
250,laascaanood,8.4774,47.3597,24.019999999999982,21,98,2.4,SO,2024-02-01
251,sabang,5.8933,95.3214,27.569999999999993,79,98,5.09,ID,2024-02-01
252,iwata,34.7,137.85,5.160000000000025,52,90,6.26,JP,2024-02-01
253,ajdabiya,30.7554,20.2263,13.550000000000011,49,96,4.87,LY,2024-02-01
254,ketchikan,55.3422,-131.6461,11.139999999999986,87,100,2.06,US,2024-02-01
255,novaya igirma,57.1334,103.9112,-33.00999999999999,100,71,0.82,RU,2024-02-01
256,sitka,57.0531,-135.33,2.089999999999975,60,100,5.66,US,2024-02-01
257,zmeinogorsk,51.1567,82.195,-7.350000000000023,90,100,2.22,RU,2024-02-01
258,korla,41.7597,86.1469,-4.5400000000000205,71,100,1.98,CN,2024-02-01
259,sao sebastiao,-23.76,-45.4097,26.870000000000005,79,95,2.43,BR,2024-02-01
260,al fuwayliq,26.4432,43.2534,10.519999999999982,39,0,6.52,SA,2024-02-01
261,l'govskiy,51.6307,35.2775,1.1100000000000136,93,100,6.28,RU,2024-02-01
262,petrodvorets,59.885,29.8958,2.180000000000007,100,100,8.3,RU,2024-02-01
263,twon-brass,4.3151,6.2418,28.110000000000014,83,100,5.04,NG,2024-02-01
264,papao,-17.75,-149.55,29.970000000000027,75,93,6.32,PF,2024-02-01
265,wagar,16.1525,36.2032,22.55000000000001,13,5,8.17,SD,2024-02-01
266,champerico,14.3,-91.9167,33.44999999999999,65,14,4.89,GT,2024-02-01
267,cristalina,-16.7686,-47.6136,19.74000000000001,86,99,1.68,BR,2024-02-01
268,loango,-4.6719,11.8312,26.95999999999998,89,20,1.54,CG,2024-02-01
269,santa isabel,-23.3156,-46.2214,27.75999999999999,76,100,3.16,BR,2024-02-01
270,darab,28.7519,54.5444,12.920000000000016,80,5,2.78,IR,2024-02-01
271,ambodifotatra,-16.9833,49.85,27.430000000000007,80,63,9.03,MG,2024-02-01
272,anadyr,64.75,177.4833,-17.569999999999993,85,100,3.0,RU,2024-02-01
273,luanda,-8.8368,13.2343,26.149999999999977,89,40,1.03,AO,2024-02-01
274,borogontsy,62.6683,131.1683,-37.879999999999995,100,80,1.48,RU,2024-02-01
275,lianzhou,24.7811,112.3825,12.930000000000007,91,100,2.72,CN,2024-02-01
276,burang,30.25,81.1667,-18.710000000000008,97,52,2.1,CN,2024-02-01
277,alvaraes,-3.2208,-64.8042,28.079999999999984,76,89,2.06,BR,2024-02-01
278,yamba,-5.9,22.3,21.99000000000001,83,100,1.18,CD,2024-02-01
279,chestertown,39.209,-76.0666,11.949999999999989,69,18,4.36,US,2024-02-01
280,kidal,18.4411,1.4078,20.55000000000001,15,8,4.52,ML,2024-02-01
281,olyokminsk,60.3736,120.4264,-26.310000000000002,100,100,1.31,RU,2024-02-01
282,strezhevoy,60.7333,77.5889,-18.090000000000003,100,100,1.66,RU,2024-02-01
283,akureyri,65.6835,-18.0878,4.110000000000014,65,40,10.29,IS,2024-02-01
284,cabedelo,-6.9811,-34.8339,31.519999999999982,66,30,5.22,BR,2024-02-01
285,kajaani,64.2273,27.7285,-1.8199999999999932,74,75,11.83,FI,2024-02-01
286,udachny,66.4167,112.4,-29.819999999999993,100,96,2.12,RU,2024-02-01
287,hartsville,34.374,-80.0734,14.879999999999995,52,0,3.6,US,2024-02-01
288,moron,-34.6534,-58.6198,38.93000000000001,32,18,0.45,AR,2024-02-01
289,castillos,-34.1667,-53.8333,30.319999999999993,39,0,4.69,UY,2024-02-01
290,sinabang,2.4803,96.3801,27.44999999999999,80,83,1.91,ID,2024-02-01
291,sikonge,-5.6333,32.7667,18.870000000000005,90,98,0.7,TZ,2024-02-01
292,alofi,-19.0595,-169.9187,25.389999999999986,92,100,7.01,NU,2024-02-01
293,kerikeri,-35.2268,173.9474,15.660000000000025,92,53,1.62,NZ,2024-02-01
294,zalingei,12.9096,23.4741,21.170000000000016,19,8,3.4,SD,2024-02-01
295,ballina,-28.8667,153.5667,19.470000000000027,92,14,2.07,AU,2024-02-01
296,kabinda,-6.1333,24.4833,20.970000000000027,89,71,0.83,CD,2024-02-01
297,fortuna,40.5982,-124.1573,10.899999999999977,94,20,6.69,US,2024-02-01
298,harper,4.375,-7.7169,28.100000000000023,77,11,3.95,LR,2024-02-01
299,port-cartier,50.0334,-66.8654,-10.550000000000011,77,100,4.04,CA,2024-02-01
300,el porvenir,13.7617,-87.3458,26.779999999999973,30,71,0.95,HN,2024-02-01
301,an nuhud,12.7,28.4333,17.610000000000014,17,10,6.58,SD,2024-02-01
302,ghat,24.9647,10.1728,12.579999999999984,28,0,3.34,LY,2024-02-01
303,newman,37.3138,-121.0208,14.069999999999993,90,94,3.36,US,2024-02-01
304,tateyama,34.9833,139.8667,6.319999999999993,50,100,5.37,JP,2024-02-01
305,longyearbyen,78.2186,15.6401,-9.939999999999998,85,75,3.6,SJ,2024-02-01
306,nieuw amsterdam,5.8833,-55.0833,33.24000000000001,48,40,3.09,SR,2024-02-01
307,rockingham,42.9668,-71.0995,3.990000000000009,84,100,1.34,US,2024-02-01
308,howrah,22.5892,88.3103,21.149999999999977,88,100,0.0,IN,2024-02-01
309,vernon,50.2581,-119.2691,6.420000000000016,81,100,1.2,CA,2024-02-01
310,sydney,-33.8679,151.2073,23.75999999999999,85,100,3.09,AU,2024-02-01
311,glace bay,46.1969,-59.957,0.589999999999975,80,75,2.57,CA,2024-02-01
312,belmonte,-15.8631,-38.8828,28.30000000000001,60,5,3.57,BR,2024-02-01
313,sao joao da barra,-21.6403,-41.0511,33.19999999999999,78,100,4.5,BR,2024-02-01
314,betio village,1.358,172.9211,28.170000000000016,76,100,5.66,KI,2024-02-01
315,port macquarie,-31.4333,152.9167,18.980000000000018,88,3,2.68,AU,2024-02-01
316,saint-pierre,-21.3393,55.4781,24.970000000000027,94,75,10.29,RE,2024-02-01
317,dudinka,69.4058,86.1778,-16.170000000000016,92,100,11.24,RU,2024-02-01
318,gazipasa,36.2694,32.3179,11.199999999999989,66,75,2.57,TR,2024-02-01
319,tannum sands,-23.9504,151.3693,23.089999999999975,78,23,2.06,AU,2024-02-01
320,rethymno,35.3647,24.4714,10.819999999999993,71,37,3.74,GR,2024-02-01
321,nizhniy kuranakh,58.8353,125.4869,-31.289999999999992,99,100,1.66,RU,2024-02-01
322,savannakhet,16.566,104.751,25.0,53,4,1.5,LA,2024-02-01
323,veydelevka,50.1521,38.4492,0.8299999999999841,94,100,5.51,RU,2024-02-01
324,pandan,14.0453,124.1694,24.579999999999984,83,100,4.06,PH,2024-02-01
325,cockburn town,21.4612,-71.1419,23.930000000000007,61,12,10.14,TC,2024-02-01
326,san lorenzo de esmeraldas,1.2883,-78.8369,28.839999999999975,77,92,3.52,EC,2024-02-01
327,biltine,14.5333,20.9167,22.329999999999984,17,9,7.55,TD,2024-02-01
328,sandnessjoen,66.0217,12.6316,0.4399999999999977,80,100,4.63,NO,2024-02-01
329,altamira,-3.2033,-52.2064,32.19999999999999,66,75,1.03,BR,2024-02-01
330,yigo village,13.5361,144.8886,25.769999999999982,80,20,8.75,GU,2024-02-01
331,adre,13.4667,22.2,19.74000000000001,20,0,6.75,TD,2024-02-01
332,hobyo,5.3505,48.5268,26.170000000000016,73,77,5.1,SO,2024-02-01
333,revelstoke,50.9832,-118.2023,2.160000000000025,100,100,1.03,CA,2024-02-01
334,cidreira,-30.1811,-50.2056,25.579999999999984,68,0,4.67,BR,2024-02-01
335,aripuana,-9.1667,-60.6333,24.04000000000002,95,100,0.35,BR,2024-02-01
336,kailua-kona,19.6406,-155.9956,26.54000000000002,64,75,2.57,US,2024-02-01
337,bogotol,56.2078,89.5342,-11.509999999999991,96,99,2.29,RU,2024-02-01
338,chonchi,-42.6128,-73.8092,24.79000000000002,49,100,2.74,CL,2024-02-01
339,itamaraca,-7.7478,-34.8256,29.180000000000007,68,35,4.57,BR,2024-02-01
340,st. john's,47.5649,-52.7093,-0.589999999999975,78,75,7.2,CA,2024-02-01
341,seven pagodas,12.6264,80.1722,28.180000000000007,82,93,3.61,IN,2024-02-01
342,alice springs,-23.7,133.8833,22.49000000000001,21,0,3.09,AU,2024-02-01
343,flying fish cove,-10.4217,105.6791,25.970000000000027,94,100,1.03,CX,2024-02-01
344,abepura,-2.6333,140.5833,23.600000000000023,100,20,0.51,ID,2024-02-01
345,ilhabela,-23.7781,-45.3581,26.720000000000027,79,93,2.71,BR,2024-02-01
346,altai,46.3722,96.2583,-18.409999999999997,58,11,0.05,MN,2024-02-01
347,fiambala,-27.6871,-67.6149,31.529999999999973,32,9,6.08,AR,2024-02-01
348,monkayo,7.8667,126.1,21.269999999999982,98,100,0.74,PH,2024-02-01
349,gubkinskiy,64.434,76.5026,-15.519999999999982,94,100,6.86,RU,2024-02-01
350,veinticinco de mayo,-35.4323,-60.1727,41.870000000000005,11,5,3.86,AR,2024-02-01
351,ishim,56.1128,69.4902,-19.27000000000001,100,93,1.79,RU,2024-02-01
352,haiku-pauwela,20.9219,-156.3051,23.50999999999999,86,100,0.45,US,2024-02-01
353,monrovia,6.3005,-10.7969,29.019999999999982,80,15,3.6,LR,2024-02-01
354,tshabong,-26.05,22.45,30.329999999999984,25,61,5.32,BW,2024-02-01
355,moengo,5.6167,-54.4,32.620000000000005,38,100,3.46,SR,2024-02-01
356,kasongo-lunda,-6.4667,16.8167,20.850000000000023,93,95,0.33,CD,2024-02-01
357,kigali,-1.95,30.0588,17.860000000000014,93,40,2.06,RW,2024-02-01
358,carloforte,39.145,8.3058,13.610000000000014,81,100,4.05,IT,2024-02-01
359,urcos,-13.6861,-71.6228,21.089999999999975,62,92,3.72,PE,2024-02-01
360,puerto rico,-26.796,-55.024,39.24000000000001,19,5,1.39,AR,2024-02-01
361,mezhdurechenskiy,59.6,65.9333,-16.019999999999982,98,70,2.24,RU,2024-02-01
362,jining,35.405,116.5814,-4.670000000000016,62,7,2.25,CN,2024-02-01
363,hami,42.8,93.45,-4.310000000000002,56,5,1.78,CN,2024-02-01
364,fort mcmurray,56.7268,-111.381,5.920000000000016,65,0,1.54,CA,2024-02-01
365,sarmiento,-45.5882,-69.07,27.24000000000001,25,100,10.69,AR,2024-02-01
366,la'ie,21.6477,-157.9253,24.129999999999995,92,97,2.22,US,2024-02-01
367,buenaventura,3.8801,-77.0312,29.860000000000014,77,96,1.91,CO,2024-02-01
368,ponta delgada,37.7333,-25.6667,18.589999999999975,82,40,4.63,PT,2024-02-01
369,ndende,-2.4008,11.3581,24.55000000000001,94,98,1.01,GA,2024-02-01
370,usogorsk,63.4106,48.6872,-4.480000000000018,95,100,6.08,RU,2024-02-01
371,mios,44.6049,-0.9333,11.509999999999991,100,100,1.54,FR,2024-02-01
372,amga,60.8953,131.9608,-39.96000000000001,100,76,1.23,RU,2024-02-01
373,iskateley,67.6803,53.1512,-2.6200000000000045,93,100,7.6,RU,2024-02-01
374,richards bay,-28.783,32.0377,23.129999999999995,84,5,2.92,ZA,2024-02-01
375,usol'ye-sibirskoye,52.7519,103.6453,-29.150000000000006,100,65,0.94,RU,2024-02-01
376,andrelandia,-21.7397,-44.3092,24.329999999999984,75,39,1.51,BR,2024-02-01
377,mingshui,36.7167,117.5,-5.839999999999975,49,12,1.52,CN,2024-02-01
378,yanam,16.7333,82.2167,21.029999999999973,91,76,1.63,IN,2024-02-01
379,swinoujscie,53.9105,14.2471,5.810000000000002,75,100,7.72,PL,2024-02-01
380,lorengau,-2.0226,147.2712,27.680000000000007,80,64,3.09,PG,2024-02-01
381,indiantown,27.0273,-80.4856,24.00999999999999,68,100,3.24,US,2024-02-01
382,nerekhta,57.4588,40.5747,1.089999999999975,92,100,4.73,RU,2024-02-01
383,jaguariaiva,-24.2511,-49.7058,19.04000000000002,95,100,3.39,BR,2024-02-01
384,christchurch,-43.5333,172.6333,16.529999999999973,71,98,0.45,NZ,2024-02-01
385,luderitz,-26.6481,15.1594,20.269999999999982,85,34,5.17,NA,2024-02-01
386,villa gesell,-37.2639,-56.973,25.94999999999999,66,88,6.33,AR,2024-02-01
387,huarmey,-10.0681,-78.1522,26.99000000000001,72,100,4.83,PE,2024-02-01
388,minas de marcona,-15.2119,-75.1103,23.930000000000007,59,28,7.17,PE,2024-02-01
389,menongue,-14.6585,17.691,18.839999999999975,89,94,1.45,AO,2024-02-01
390,hithadhoo,-0.6,73.0833,28.24000000000001,74,42,5.37,MV,2024-02-01
391,mount isa,-20.7333,139.5,26.019999999999982,83,100,3.6,AU,2024-02-01
392,sanchor,24.7553,71.7722,18.980000000000018,53,24,2.48,IN,2024-02-01
393,aykhal,66.0,111.5,-27.060000000000002,99,70,2.96,RU,2024-02-01
394,acapulco de juarez,16.8634,-99.8901,30.05000000000001,66,20,3.6,MX,2024-02-01
395,priargunsk,50.3691,119.1012,-38.650000000000006,100,80,0.95,RU,2024-02-01
396,arraial do cabo,-22.9661,-42.0278,29.129999999999995,74,75,4.12,BR,2024-02-01
397,balabac,7.9868,117.0645,26.74000000000001,76,97,4.55,PH,2024-02-01
398,pingdingshan,33.7385,113.3012,-2.230000000000018,58,99,3.54,CN,2024-02-01
399,hadibu,12.65,54.0333,25.129999999999995,74,38,1.69,YE,2024-02-01
400,turar ryskulov,42.5333,70.3333,-4.089999999999975,95,100,7.69,KZ,2024-02-01
401,north platte,41.1239,-100.7654,14.800000000000011,51,0,1.54,US,2024-02-01
402,tindouf,27.6711,-8.1474,20.399999999999977,15,0,6.69,DZ,2024-02-01
403,ashgabat,37.95,58.3833,4.069999999999993,75,5,5.14,TM,2024-02-01
404,santa cruz,-17.8,-63.1667,26.180000000000007,73,75,10.29,BO,2024-02-01
405,waingapu,-9.6567,120.2641,26.25999999999999,85,13,1.59,ID,2024-02-01
406,vadso,70.0744,29.7487,0.2400000000000091,93,40,6.17,NO,2024-02-01
407,mhamid,29.82,-5.72,15.230000000000018,23,26,3.91,MA,2024-02-01
408,nuku'alofa,-21.1333,-175.2,25.339999999999975,100,75,2.06,TO,2024-02-01
409,brookings,44.3114,-96.7984,7.399999999999977,77,0,6.17,US,2024-02-01
410,cumana,10.4635,-64.1775,27.920000000000016,74,100,2.4,VE,2024-02-01
411,arteche,12.2645,125.4048,24.50999999999999,87,66,3.29,PH,2024-02-01
412,daura,11.5538,11.4085,22.600000000000023,21,25,5.76,NG,2024-02-01
413,fort st. john,56.2499,-120.8529,2.089999999999975,75,75,2.06,CA,2024-02-01
414,thief river falls,48.1191,-96.1812,3.680000000000007,87,0,2.06,US,2024-02-01
415,kanniyakumari,8.0833,77.5667,26.610000000000014,81,89,1.87,IN,2024-02-01
416,saint-francois,46.4154,3.9054,8.839999999999975,100,100,1.03,FR,2024-02-01
417,uturoa,-16.7333,-151.4333,28.04000000000002,72,90,5.6,PF,2024-02-01
418,vila franca do campo,37.7167,-25.4333,18.420000000000016,99,28,4.03,PT,2024-02-01
419,cromwell,41.5951,-72.6454,6.810000000000002,76,100,3.09,US,2024-02-01
420,geraldton,-28.7667,114.6,26.379999999999995,34,0,4.12,AU,2024-02-01
421,ngorongoro,-3.2397,35.4875,12.360000000000014,88,100,1.24,TZ,2024-02-01
422,saldanha,-33.0117,17.9442,32.18000000000001,85,6,3.39,ZA,2024-02-01
423,mahanoro,-19.9,48.8,24.670000000000016,91,100,2.67,MG,2024-02-01
424,martuk,50.7475,56.5056,-10.620000000000005,94,100,3.08,KZ,2024-02-01
425,enterprise,36.0252,-115.2419,13.740000000000009,53,100,4.12,US,2024-02-01
426,el fuerte,26.4189,-108.6194,28.879999999999995,28,0,2.79,MX,2024-02-01
427,raja,8.4596,25.678,23.70999999999998,18,100,2.48,SS,2024-02-01
428,kruisfontein,-34.0033,24.7314,20.829999999999984,92,50,3.05,ZA,2024-02-01
429,port moresby,-9.4431,147.1797,25.20999999999998,88,100,3.07,PG,2024-02-01
430,aqsay,51.1678,52.995,-3.4499999999999886,96,100,6.45,KZ,2024-02-01
431,playa del ingles,27.7567,-15.5787,22.589999999999975,30,12,0.45,ES,2024-02-01
432,kirensk,57.7853,108.1119,-32.09,100,51,0.27,RU,2024-02-01
433,aasiaat,68.7098,-52.8699,-24.72,96,100,1.91,GL,2024-02-01
434,kirakira,-10.4544,161.9205,27.100000000000023,87,99,4.08,SB,2024-02-01
435,shingu,33.7333,135.9833,6.189999999999998,70,100,2.01,JP,2024-02-01
436,tarawa,1.419,172.984,28.19999999999999,94,40,3.09,KI,2024-02-01
437,itoman,26.1247,127.6694,22.160000000000025,83,75,3.6,JP,2024-02-01
438,port hueneme,34.1478,-119.1951,14.850000000000023,93,100,3.6,US,2024-02-01
439,noumea,-22.2763,166.4572,24.139999999999986,83,99,1.78,NC,2024-02-01
440,la libertad,-2.2333,-80.9,29.95999999999998,70,40,4.12,EC,2024-02-01
441,challapata,-18.9,-66.7667,15.04000000000002,52,75,3.2,BO,2024-02-01
442,mokshan,53.4365,44.6132,-2.2799999999999727,97,100,4.07,RU,2024-02-01
443,guerrero negro,27.9769,-114.0611,20.160000000000025,46,0,2.84,MX,2024-02-01
444,greymouth,-42.4667,171.2,14.560000000000002,96,100,6.6,NZ,2024-02-01
445,lokomotivnyy,53.0118,60.5684,-17.960000000000008,100,100,2.68,RU,2024-02-01
446,mina clavero,-31.721,-65.0062,34.72000000000003,21,8,3.02,AR,2024-02-01
447,caleta de carquin,-11.0925,-77.6267,26.29000000000002,74,90,4.38,PE,2024-02-01
448,bismarck,46.8083,-100.7837,7.160000000000025,82,0,4.02,US,2024-02-01
449,helston,50.1032,-5.2705,9.259999999999991,93,100,2.06,GB,2024-02-01
450,mana,5.6592,-53.7767,28.899999999999977,59,100,4.39,GF,2024-02-01
451,serafimovskiy,54.4241,53.7964,-15.110000000000014,97,39,2.63,RU,2024-02-01
452,tombodu,8.1333,-10.6167,29.930000000000007,44,63,0.94,SL,2024-02-01
453,rosso,16.4986,-15.8153,28.930000000000007,9,100,4.4,SN,2024-02-01
454,al hufuf,25.3646,49.5653,21.339999999999975,56,0,2.06,SA,2024-02-01
455,vicuna,-30.0319,-70.7081,33.360000000000014,32,0,4.27,CL,2024-02-01
456,nelson bay,-32.7167,152.15,22.930000000000007,95,8,1.34,AU,2024-02-01
457,la passe,45.5549,-0.8967,12.279999999999973,94,100,2.68,FR,2024-02-01
458,bodo,67.28,14.405,-0.4399999999999977,70,75,13.89,NO,2024-02-01
459,alpena,45.0617,-83.4327,4.649999999999977,93,100,4.12,US,2024-02-01
460,dabakala,8.3667,-4.4333,31.339999999999975,18,87,1.69,CI,2024-02-01
461,lata,40.1629,-8.3327,12.230000000000018,77,15,1.68,PT,2024-02-01
462,malmberget,67.1753,20.6549,-3.5400000000000205,63,75,11.32,SE,2024-02-01
463,ambon,-3.6954,128.1814,26.230000000000018,89,40,4.63,ID,2024-02-01
464,nikolayevsk-on-amure,53.1406,140.73,-20.319999999999993,85,100,3.65,RU,2024-02-01
465,kankanhalli,12.55,77.4167,22.80000000000001,49,81,0.42,IN,2024-02-01
466,remire-montjoly,4.9167,-52.2667,31.170000000000016,58,20,4.63,GF,2024-02-01
467,aracuai,-16.8497,-42.0703,31.75,58,59,1.26,BR,2024-02-01
468,bel ombre,-4.6167,55.4167,29.060000000000002,79,20,3.09,SC,2024-02-01
469,sayyan,15.1718,44.3244,14.95999999999998,74,54,2.32,YE,2024-02-01
470,villamontes,-21.25,-63.5,35.839999999999975,41,20,0.0,BO,2024-02-01
471,graaff-reinet,-32.2522,24.5308,30.660000000000025,38,79,1.53,ZA,2024-02-01
472,zhob,31.3411,69.4481,5.160000000000025,21,0,1.29,PK,2024-02-01
473,the pas,53.8251,-101.2541,-4.839999999999975,93,100,6.69,CA,2024-02-01
474,san ignacio,17.1561,-89.0714,23.230000000000018,73,75,0.0,BZ,2024-02-01
475,es castell,39.8795,4.2854,12.529999999999973,87,20,3.09,ES,2024-02-01
476,kabwe,-14.4469,28.4464,18.139999999999986,93,7,2.27,ZM,2024-02-01
477,las khorey,11.1595,48.1967,25.910000000000025,73,99,2.04,SO,2024-02-01
478,qulsary,46.9531,54.0198,-1.8899999999999864,87,100,6.84,KZ,2024-02-01
479,bayanaul,50.7889,75.6956,-10.160000000000025,87,100,3.18,KZ,2024-02-01
480,san juan de miraflores,-12.1629,-76.9635,27.439999999999998,75,99,3.83,PE,2024-02-01
481,simplicio mendes,-7.8539,-41.9103,36.76999999999998,26,69,3.43,BR,2024-02-01
482,sinjai,-5.1241,120.253,24.420000000000016,88,87,1.5,ID,2024-02-01
483,cascais,38.6979,-9.4215,17.95999999999998,74,0,2.24,PT,2024-02-01
484,ibotirama,-12.1853,-43.2206,32.45999999999998,52,88,0.72,BR,2024-02-01
485,kattivakkam,13.2167,80.3167,28.19999999999999,85,95,2.32,IN,2024-02-01
486,kununurra,-15.7667,128.7333,29.139999999999986,89,79,0.51,AU,2024-02-01
487,egilsstadir,65.2653,-14.3948,1.1000000000000227,64,0,3.6,IS,2024-02-01
488,tezu,27.9167,96.1667,14.970000000000027,36,100,1.65,IN,2024-02-01
489,kichmengskiy gorodok,59.9816,45.7854,-2.660000000000025,94,100,4.02,RU,2024-02-01
490,bure,10.7,37.0667,15.899999999999977,61,10,2.15,ET,2024-02-01
491,mokhsogollokh,61.4681,128.9203,-30.840000000000003,97,32,2.64,RU,2024-02-01
492,torzhok,57.0436,34.9622,-0.5,91,100,4.07,RU,2024-02-01
493,akrehamn,59.2667,5.1833,5.939999999999998,87,75,3.6,NO,2024-02-01
494,saudarkrokur,65.7461,-19.6394,2.660000000000025,98,100,5.52,IS,2024-02-01
495,nadym,65.5333,72.5167,-11.839999999999975,89,100,8.33,RU,2024-02-01
496,crane,31.3974,-102.3501,20.389999999999986,32,89,3.69,US,2024-02-01
497,cacapava do sul,-30.5122,-53.4914,32.5,25,0,1.7,BR,2024-02-01
498,grand baie,-20.0182,57.5802,27.410000000000025,88,72,1.79,MU,2024-02-01
499,kourou,5.1552,-52.6478,31.180000000000007,60,100,3.57,GF,2024-02-01
500,pacific grove,36.6177,-121.9166,14.829999999999984,89,75,4.02,US,2024-02-01
501,kibre mengist,5.8833,38.9833,17.410000000000025,44,76,0.61,ET,2024-02-01
502,jerome,42.7241,-114.5186,12.75,69,75,6.17,US,2024-02-01
503,tam ky,15.5667,108.4833,20.639999999999986,92,57,1.32,VN,2024-02-01
504,malyye derbety,47.9547,44.6808,1.240000000000009,80,100,6.79,RU,2024-02-01
505,snovsk,51.8239,31.9428,0.9200000000000159,98,100,6.36,UA,2024-02-01
506,new yekepa,7.5794,-8.5378,28.94999999999999,27,87,0.73,LR,2024-02-01
507,noyabrsk,63.1994,75.4507,-18.069999999999993,98,100,5.5,RU,2024-02-01
508,quellon,-43.1167,-73.6167,19.279999999999973,70,100,3.04,CL,2024-02-01
509,mugia,43.1041,-9.2179,15.100000000000023,90,13,7.76,ES,2024-02-01
510,princeville,45.7668,-61.2985,1.990000000000009,81,100,2.57,CA,2024-02-01
511,quimili,-27.6333,-62.4167,40.920000000000016,17,100,4.73,AR,2024-02-01
512,nishinoomote,30.7333,131.0,16.720000000000027,82,100,7.6,JP,2024-02-01
513,malvan,16.0667,73.4667,21.730000000000018,78,8,4.06,IN,2024-02-01
514,velikiy ustyug,60.7644,46.3106,-3.519999999999982,95,100,4.02,RU,2024-02-01
515,nadi,-17.8,177.4167,25.149999999999977,88,40,2.57,FJ,2024-02-01
516,utrik,11.2278,169.8474,26.120000000000005,86,82,11.17,MH,2024-02-01
517,karanpur,29.8419,73.4542,11.480000000000018,45,0,3.89,IN,2024-02-01
518,el granada,37.5027,-122.4694,14.639999999999986,88,75,3.6,US,2024-02-01
519,enshi,30.3,109.4833,5.889999999999986,95,100,1.5,CN,2024-02-01
520,san-pedro,4.7485,-6.6363,27.819999999999993,80,34,3.7,CI,2024-02-01
521,neftcala,39.3742,49.2472,6.420000000000016,75,99,2.32,AZ,2024-02-01
522,las palmas,28.4204,-14.0131,19.589999999999975,52,0,4.63,ES,2024-02-01
523,arraias,-12.9288,-46.9437,25.95999999999998,74,100,1.07,BR,2024-02-01
524,gaspe,48.8334,-64.4819,-5.899999999999977,93,100,4.12,CA,2024-02-01
525,zouerate,22.7187,-12.4521,21.430000000000007,13,32,4.25,MR,2024-02-01
526,buulobarde,3.8538,45.5674,26.329999999999984,73,100,7.26,SO,2024-02-01
527,pickerington,39.8842,-82.7535,11.110000000000014,67,0,5.66,US,2024-02-01
528,nikol'sk,53.7189,46.0712,-2.490000000000009,97,100,2.99,RU,2024-02-01
529,saint-joseph,-21.3667,55.6167,24.360000000000014,88,73,7.89,RE,2024-02-01
530,portland,45.5234,-122.6762,13.79000000000002,85,75,4.12,US,2024-02-01
531,luganville,-15.5333,167.1667,26.589999999999975,86,12,0.56,VU,2024-02-01
532,tadine,-21.55,167.8833,25.79000000000002,85,89,3.59,NC,2024-02-01
533,sechenovo,55.2244,45.8906,-2.769999999999982,97,100,2.84,RU,2024-02-01
534,afgooye,2.1381,45.1212,26.189999999999998,83,93,5.55,SO,2024-02-01
535,ayr,55.4627,-4.6339,7.649999999999977,81,75,4.12,GB,2024-02-01
536,ivdel',60.6911,60.4206,-15.860000000000014,100,88,0.89,RU,2024-02-01
537,poyarkovo,49.6,128.6833,-29.30000000000001,100,62,2.32,RU,2024-02-01
538,leava,-14.3,-178.1667,27.25,87,100,5.8,WF,2024-02-01
539,george town,5.4112,100.3354,28.110000000000014,82,20,2.57,MY,2024-02-01
540,san sebastian de la gomera,28.0916,-17.1133,21.350000000000023,60,0,3.6,ES,2024-02-01
541,kuqa,41.7278,82.9364,-1.0400000000000205,66,100,1.24,CN,2024-02-01
542,nouadhibou,20.931,-17.0347,29.139999999999986,16,0,1.54,MR,2024-02-01
543,ladozhskaya,45.3081,39.935,1.8100000000000023,79,100,3.76,RU,2024-02-01
544,siracusa,37.0881,15.2792,10.920000000000016,64,0,0.78,IT,2024-02-01
545,gadzhiyevo,69.2551,33.3362,-0.7900000000000205,89,100,9.35,RU,2024-02-01
546,togur,58.3631,82.8265,-11.990000000000009,97,94,1.79,RU,2024-02-01
547,sao gabriel da cachoeira,-0.1303,-67.0892,31.04000000000002,74,75,2.06,BR,2024-02-01
548,warrnambool,-38.3833,142.4833,13.949999999999989,76,0,4.62,AU,2024-02-01
549,suva,-18.1416,178.4415,23.860000000000014,100,75,1.54,FJ,2024-02-01
550,egersund,58.4513,5.9997,5.199999999999989,96,99,4.01,NO,2024-02-01
551,chebba,35.2372,11.115,13.990000000000009,68,28,2.08,TN,2024-02-01
552,port shepstone,-30.7414,30.455,24.19999999999999,86,100,6.78,ZA,2024-02-01
553,panorama,40.5878,23.0315,6.759999999999991,42,37,0.45,GR,2024-02-01
554,kosh-agach,50.0,88.6667,-22.460000000000008,87,100,2.24,RU,2024-02-01
555,saint-philippe,-21.3585,55.7679,24.920000000000016,89,92,7.76,RE,2024-02-01
556,kuusamo,65.9667,29.1833,-1.829999999999984,80,75,7.72,FI,2024-02-01
557,ulladulla,-35.35,150.4667,18.350000000000023,86,98,0.44,AU,2024-02-01
558,umm kaddadah,13.6017,26.6876,16.850000000000023,20,0,6.58,SD,2024-02-01
559,freetown,8.484,-13.2299,26.99000000000001,83,87,4.12,SL,2024-02-01
560,undurkhaan,47.3194,110.6556,-24.650000000000006,98,7,1.01,MN,2024-02-01
561,nova sintra,14.8667,-24.7167,21.75,68,98,3.81,CV,2024-02-01
562,hefei,31.8639,117.2808,-1.839999999999975,93,100,5.0,CN,2024-02-01
563,yuzhno-kurilsk,44.0306,145.8556,-7.970000000000027,64,100,11.4,RU,2024-02-01
564,banda aceh,5.5577,95.3222,26.069999999999993,86,100,3.29,ID,2024-02-01
565,darhan,49.4867,105.9228,-29.439999999999998,98,19,1.79,MN,2024-02-01
566,san pedro de macoris,18.4616,-69.2972,29.220000000000027,69,51,2.56,DO,2024-02-01
567,jutai,-5.1833,-68.9,25.879999999999995,86,100,1.18,BR,2024-02-01
568,rajula,21.05,71.4333,21.25,73,33,2.83,IN,2024-02-01
569,akcaabat,41.0212,39.5715,8.079999999999984,66,75,2.06,TR,2024-02-01
570,lyantor,61.6195,72.1555,-19.069999999999993,100,81,4.29,RU,2024-02-01
571,genoa,44.4129,8.9573,11.600000000000023,85,20,1.03,IT,2024-02-01
572,stephenville,32.2207,-98.2023,21.399999999999977,52,0,5.66,US,2024-02-01
573,fonte boa,-2.4959,-66.2662,27.649999999999977,93,99,1.25,BR,2024-02-01
574,nyurba,63.2842,118.3319,-25.460000000000008,98,100,1.57,RU,2024-02-01
575,bodaybo,57.8506,114.1933,-25.960000000000008,97,100,0.44,RU,2024-02-01
576,fort bragg,35.139,-79.006,14.490000000000009,54,0,4.12,US,2024-02-01
577,port saint john's,-31.6229,29.5448,24.639999999999986,82,100,7.31,ZA,2024-02-01
578,jikamshi,12.1733,7.7742,22.060000000000002,17,63,4.6,NG,2024-02-01
579,wuyang,31.9925,116.2472,-1.7099999999999795,94,100,3.87,CN,2024-02-01
580,hillsborough,37.5741,-122.3794,14.199999999999989,89,40,3.6,US,2024-02-01
581,puerto deseado,-47.7503,-65.8938,26.49000000000001,30,16,3.73,AR,2024-02-01
582,abu jibeha,11.4562,31.2285,22.0,14,5,5.33,SD,2024-02-01
583,ixtapa,20.7,-105.2,26.720000000000027,61,0,4.12,MX,2024-02-01
584,hohoe,7.1518,0.4736,30.519999999999982,31,81,1.18,GH,2024-02-01
585,kupang,-10.1667,123.5833,26.470000000000027,100,100,0.51,ID,2024-02-01
586,tavira,37.1273,-7.6486,16.079999999999984,79,1,1.17,PT,2024-02-01
587,emerald,-23.5333,148.1667,22.560000000000002,89,29,2.4,AU,2024-02-01
588,sisimiut,66.9395,-53.6735,-22.19999999999999,99,100,3.15,GL,2024-02-01
589,bardai,11.65,7.2333,22.069999999999993,18,10,4.32,NG,2024-02-01
590,majene,-3.5403,118.9707,26.189999999999998,85,100,2.82,ID,2024-02-01
591,usinsk,65.9939,57.5281,-8.139999999999986,95,61,7.6,RU,2024-02-01
592,sanibel,26.449,-82.0223,22.399999999999977,52,100,0.45,US,2024-02-01
593,fisterra,42.9049,-9.2629,15.009999999999991,85,18,6.73,ES,2024-02-01
594,kone,-21.0595,164.8658,25.05000000000001,93,100,1.85,NC,2024-02-01
595,ambovombe,-25.1667,46.0833,23.680000000000007,78,100,8.32,MG,2024-02-01
596,argo,37.6333,22.7333,5.589999999999975,49,0,1.04,GR,2024-02-01
597,salaya,22.3167,69.6,21.54000000000002,86,4,2.8,IN,2024-02-01
598,midvagur,62.0511,-7.1939,5.610000000000014,100,100,6.69,FO,2024-02-01
599,sao joao de pirabas,-0.7747,-47.1772,26.930000000000007,91,100,3.36,BR,2024-02-01
600,cide,41.8921,33.0044,4.8799999999999955,81,19,1.13,TR,2024-02-01
601,belyy yar,53.6039,91.3903,-21.909999999999997,84,100,0.0,RU,2024-02-01
602,mecca,21.4267,39.8261,17.30000000000001,50,11,5.26,SA,2024-02-01
603,assab,13.0092,42.7394,25.850000000000023,82,10,7.06,ER,2024-02-01
604,juneau,58.3019,-134.4197,-2.3999999999999773,100,100,2.05,US,2024-02-01
605,polyarnyye zori,67.3661,32.4981,0.6999999999999886,91,100,6.2,RU,2024-02-01
606,basoko,1.2391,23.616,28.70999999999998,53,100,0.68,CD,2024-02-01
607,mili,6.0815,171.735,27.769999999999982,80,100,6.8,MH,2024-02-01
608,al ghayzah,16.2079,52.176,24.649999999999977,78,49,4.42,YE,2024-02-01
609,san isidro de curuguaty,-24.5167,-55.7,39.77999999999997,18,44,1.52,PY,2024-02-01
610,xining,36.6167,101.7667,-5.25,96,100,1.01,CN,2024-02-01
611,labrador city,52.9463,-66.9114,-18.900000000000006,60,75,0.0,CA,2024-02-01
612,santa luzia,-19.7697,-43.8514,30.339999999999975,58,40,2.06,BR,2024-02-01
613,shizunai-furukawacho,42.3339,142.3669,-4.899999999999977,78,98,7.44,JP,2024-02-01
614,illizi,26.4833,8.4667,15.04000000000002,26,0,5.6,DZ,2024-02-01
615,maudsland,-27.95,153.2667,21.660000000000025,90,17,1.26,AU,2024-02-01
616,al qadarif,14.0349,35.3834,22.600000000000023,12,5,5.4,SD,2024-02-01
617,yaren,-0.5472,166.916,28.810000000000002,73,100,4.39,NR,2024-02-01
618,am timan,11.0297,20.2827,27.689999999999998,17,100,2.77,TD,2024-02-01
619,shalqar,47.8333,59.6,-12.529999999999973,96,61,3.68,KZ,2024-02-01
620,nejo,9.5,35.5,17.50999999999999,45,100,1.36,ET,2024-02-01
621,kilifi,-3.6305,39.8499,26.49000000000001,81,100,3.14,KE,2024-02-01
622,noyemberyan,41.1724,44.9992,-2.079999999999984,70,6,2.71,AM,2024-02-01
623,kapoeta,4.7717,33.5903,28.410000000000025,50,100,2.43,SS,2024-02-01
